[
  {
    "id": "australia",
    "name": "Albert Park Circuit",
    "displayName": "ALBERT PARK CIRCUIT",
    "lng": 144.9700,
    "lat": -37.8503,
    "country": "Australia",
    "firstGP": 1996,
    "length": "5.278 km",
    "laps": 58,
    "image": "https://media.formula1.com/image/upload/t_16by9South/c_lfill,w_3392/q_auto/v1740000001/GettyImages-1250040537.webp",
    "geojsonId": "au-1953"
  },
  {
    "id": "china",
    "name": "Shanghai International Circuit",
    "displayName": "SHANGHAI INTERNATIONAL CIRCUIT",
    "lng": 121.2216,
    "lat": 31.3395,
    "country": "China",
    "firstGP": 2004,
    "length": "5.451 km",
    "laps": 56,
    "image": "https://www.civitatis.com/f/china/shanghai/entradas-formula-1-shanghai-grid.jpg",
    "geojsonId": "cn-2004"
  },
  {
    "id": "japan",
    "name": "Suzuka Circuit",
    "displayName": "SUZUKA CIRCUIT",
    "lng": 136.5379,
    "lat": 34.8447,
    "country": "Japan",
    "firstGP": 1987,
    "length": "5.807 km",
    "laps": 53,
    "image": "https://cdn-2.motorsport.com/images/amp/YEQabmKY/s1000/max-verstappen-red-bull-racing.jpg",
    "geojsonId": "jp-1962"
  },
  {
    "id": "bahrain",
    "name": "Bahrain International Circuit",
    "displayName": "BAHRAIN INTERNATIONAL CIRCUIT",
    "lng": 50.5108,
    "lat": 26.0321,
    "country": "Bahrain",
    "firstGP": 2004,
    "length": "5.412 km",
    "laps": 57,
    "image": "https://www.timeoutbahrain.com/cloud/timeoutbahrain/2024/09/17/409000265_18414303553033106_7265928152314773389_n.jpg",
    "geojsonId": "bh-2002"
  },
  {
    "id": "saudi-arabia",
    "name": "Jeddah Corniche Circuit",
    "displayName": "JEDDAH CORNICHE CIRCUIT",
    "lng": 39.1046,
    "lat": 21.6315,
    "country": "Saudi Arabia",
    "firstGP": 2021,
    "length": "6.174 km",
    "laps": 50,
    "image": "https://soulofsaudi.com/wp-content/uploads/2025/11/Feel-the-adrenaline-of-the-Saudi-Arabian-Grand-Prix-Jeddah-2026-%E2%80%94-where-the-roar-of-F1-engines-meets-the-serenity-of-the-Red-Sea.-Credits-Speedmag.webp",
    "geojsonId": "sa-2021"
  },
  {
    "id": "miami",
    "name": "Miami International Autodrome",
    "displayName": "MIAMI INTERNATIONAL AUTODROME",
    "lng": -80.2379,
    "lat": 25.9595,
    "country": "United States",
    "firstGP": 2022,
    "length": "5.412 km",
    "laps": 57,
    "image": "https://media.ambito.com/p/5b0dff9b9da4ce37428964f118941143/adjuntos/239/imagenes/042/384/0042384715/f1-2025-miami-gpjpg.jpg",
    "geojsonId": "us-2022"
  },
  {
    "id": "canada",
    "name": "Circuit Gilles Villeneuve",
    "displayName": "CIRCUIT GILLES VILLENEUVE",
    "lng": -73.5226,
    "lat": 45.5014,
    "country": "Canada",
    "firstGP": 1978,
    "length": "4.361 km",
    "laps": 70,
    "image": "https://dynamic-media-cdn.tripadvisor.com/media/photo-o/07/72/f2/f0/circuit-gilles-villeneuve.jpg?w=1200&h=-1&s=1",
    "geojsonId": "ca-1978"
  },
  {
    "id": "monaco",
    "name": "Circuit de Monaco",
    "displayName": "CIRCUIT DE MONACO",
    "lng": 7.426,
    "lat": 43.7368,
    "country": "Monaco",
    "firstGP": 1950,
    "length": "3.337 km",
    "laps": 78,
    "image": "https://www.civitatis.com/f/monaco/monaco/monaco.jpg",
    "geojsonId": "mc-1929"
  },
  {
    "id": "spain-barcelona",
    "name": "Circuit de Barcelona-Catalunya",
    "displayName": "CIRCUIT DE BARCELONA-CATALUNYA",
    "lng": 2.2579,
    "lat": 41.5698,
    "country": "Spain",
    "firstGP": 1991,
    "length": "4.657 km",
    "laps": 66,
    "image": "https://www.grandprixgrandtours.com/wp-content/uploads/2024/04/GPGT_Spain_Banner_shutterstock_2160027715.webp",
    "geojsonId": "es-1991"
  },
  {
    "id": "austria",
    "name": "Red Bull Ring",
    "displayName": "RED BULL RING",
    "lng": 14.7651,
    "lat": 47.2197,
    "country": "Austria",
    "firstGP": 1970,
    "length": "4.318 km",
    "laps": 71,
    "image": "https://www.redbullring.com/en/wp-content/uploads/sites/1/2023/07/LP_230630_F1_0094-scaled.jpg",
    "geojsonId": "at-1969"
  },
  {
    "id": "britain",
    "name": "Silverstone Circuit",
    "displayName": "SILVERSTONE CIRCUIT",
    "lng": -1.0230,
    "lat": 52.0681,
    "country": "Great Britain",
    "firstGP": 1950,
    "length": "5.891 km",
    "laps": 52,
    "image": "https://media.formula1.com/image/upload/f_auto/q_auto/v1707391088/fom-website/2023/Miscellaneous/silverstone-start-2023.png",
    "geojsonId": "gb-1948"
  },
  {
    "id": "belgium",
    "name": "Circuit de Spa-Francorchamps",
    "displayName": "CIRCUIT DE SPA-FRANCORCHAMPS",
    "lng": 5.9662,
    "lat": 50.4437,
    "country": "Belgium",
    "firstGP": 1950,
    "length": "7.004 km",
    "laps": 44,
    "image": "https://media.formula1.com/image/upload/c_lfill,w_3392/q_auto/v1740000001/content/dam/fom-website/2018-redesign-assets/Racehub%20header%20images%2016x9/Belgium.webp",
    "geojsonId": "be-1921"
  },
  {
    "id": "hungary",
    "name": "Hungaroring",
    "displayName": "HUNGARORING",
    "lng": 19.2474,
    "lat": 47.5798,
    "country": "Hungary",
    "firstGP": 1986,
    "length": "4.381 km",
    "laps": 70,
    "image": "https://static.tickets-platform.com/cinematic/slideshow/3277/grandstands/9255/6a2eb90a498e9b262f4377419fb6d738.jpg",
    "geojsonId": "hu-1986"
  },
  {
    "id": "netherlands",
    "name": "Circuit Zandvoort",
    "displayName": "CIRCUIT ZANDVOORT",
    "lng": 4.5345,
    "lat": 52.3842,
    "country": "Netherlands",
    "firstGP": 1952,
    "length": "4.259 km",
    "laps": 72,
    "image": "https://media.formula1.com/image/upload/t_16by9South/c_lfill,w_3392/q_auto/v1740000001/trackside-images/2025/F1_Grand_Prix_of_Netherlands/2233001380.webp",
    "geojsonId": "nl-1948"
  },
  {
    "id": "italy",
    "name": "Monza Circuit",
    "displayName": "MONZA CIRCUIT",
    "lng": 9.2783,
    "lat": 45.6102,
    "country": "Italy",
    "firstGP": 1950,
    "length": "5.793 km",
    "laps": 53,
    "image": "https://media.formula1.com/image/upload/t_16by9South/c_lfill,w_3392/q_auto/v1740000001/trackside-images/2023/F1_Grand_Prix_of_Italy/1657349836.webp",
    "geojsonId": "it-1922"
  },
  {
    "id": "spain-madrid",
    "name": "Circuito IFEMA Madrid (Madring)",
    "displayName": "CIRCUITO IFEMA MADRID (MADRING)",
    "lng": -3.6173,
    "lat": 40.4678,
    "country": "Spain",
    "firstGP": 2026,
    "length": "5.474 km",
    "laps": 57,
    "image": "https://imgresizer.eurosport.com/unsafe/1200x0/filters:format(jpeg)/origin-imgresizer.eurosport.com/2024/12/19/image-ef7529a9-04dc-49fd-98d4-361800ba5cb4-85-2560-1440.jpeg",
    "geojsonId": "es-2026"
  },
  {
    "id": "azerbaijan",
    "name": "Baku City Circuit",
    "displayName": "BAKU CITY CIRCUIT",
    "lng": 49.8532,
    "lat": 40.3729,
    "country": "Azerbaijan",
    "firstGP": 2016,
    "length": "6.003 km",
    "laps": 51,
    "image": "https://media.formula1.com/image/upload/c_lfill,w_3392/q_auto/v1740000001/content/dam/fom-website/manual/Misc/ROAD_TO_F1/rsz_1015130123-lat-20180428-_onz8939.webp",
    "geojsonId": "az-2016"
  },
  {
    "id": "singapore",
    "name": "Marina Bay Street Circuit",
    "displayName": "MARINA BAY STREET CIRCUIT",
    "lng": 103.8639,
    "lat": 1.2914,
    "country": "Singapore",
    "firstGP": 2008,
    "length": "4.94 km",
    "laps": 62,
    "image": "https://media.formula1.com/image/upload/t_16by9Centre/c_lfill,w_3392/q_auto/v1740000001/fom-website/2023/Singapore/GettyImages-1682522763.webp",
    "geojsonId": "sg-2008"
  },
  {
    "id": "usa-austin",
    "name": "Circuit of the Americas",
    "displayName": "CIRCUIT OF THE AMERICAS",
    "lng": -97.6404,
    "lat": 30.1327,
    "country": "United States",
    "firstGP": 2012,
    "length": "5.513 km",
    "laps": 56,
    "image": "https://media.formula1.com/image/upload/t_16by9South/c_lfill,w_3392/q_auto/v1740000001/trackside-images/2023/F1_Grand_Prix_of_United_States/1750720263.webp",
    "geojsonId": "us-2012"
  },
  {
    "id": "mexico",
    "name": "Autódromo Hermanos Rodríguez",
    "displayName": "AUTÓDROMO HERMANOS RODRÍGUEZ",
    "lng": -99.0925,
    "lat": 19.4056,
    "country": "Mexico",
    "firstGP": 1963,
    "length": "4.304 km",
    "laps": 71,
    "image": "https://media.lacapital.com.ar/p/093342a31169724d92dea9b800c13e46/adjuntos/204/imagenes/101/972/0101972879/circuito-mexicojpg.png",
    "geojsonId": "mx-1962"
  },
  {
    "id": "brazil",
    "name": "Interlagos Circuit",
    "displayName": "INTERLAGOS CIRCUIT",
    "lng": -46.6993,
    "lat": -23.7046,
    "country": "Brazil",
    "firstGP": 1973,
    "length": "4.309 km",
    "laps": 71,
    "image": "https://images.daznservices.com/di/library/DAZN_News/98/97/2021-11-10-2019-brazil-interlagos-circuit-sao-paulo-circuit-f1-formula-1_s3d27fndgf7x1pz3c0c2994xo.jpg?t=180701525",
    "geojsonId": "br-1940"
  },
  {
    "id": "usa-las-vegas",
    "name": "Las Vegas Strip Circuit",
    "displayName": "LAS VEGAS STRIP CIRCUIT",
    "lng": -115.1619,
    "lat": 36.1093,
    "country": "United States",
    "firstGP": 2023,
    "length": "6.201 km",
    "laps": 50,
    "image": "https://www.thedrive.com/wp-content/uploads/2024/11/GettyImages-2185854265.jpg",
    "geojsonId": "us-2023"
  },
  {
    "id": "qatar",
    "name": "Lusail International Circuit",
    "displayName": "LUSAIL INTERNATIONAL CIRCUIT",
    "lng": 51.4505,
    "lat": 25.4885,
    "country": "Qatar",
    "firstGP": 2021,
    "length": "5.419 km",
    "laps": 57,
    "image": "https://cdn-8.motorsport.com/images/mgl/0ZRKdlo0/s1000/lusail-international-circuit-o-1.jpg",
    "geojsonId": "qa-2004"
  },
  {
    "id": "abu-dhabi",
    "name": "Yas Marina Circuit",
    "displayName": "YAS MARINA CIRCUIT",
    "lng": 54.6063,
    "lat": 24.4766,
    "country": "United Arab Emirates",
    "firstGP": 2009,
    "length": "5.281 km",
    "laps": 58,
    "image": "https://www.statsf1.com/photos/circuits/yasmarina.jpg",
    "geojsonId": "ae-2009"
  }
]